{
"type": "FeatureCollection",
"name": "collections",
"crs": { "type": "name", "properties": { "name": "urn:ogc:def:crs:OGC:1.3:CRS84" } },
"features": [
{ "type": "Feature", "properties": { "id": "1", "name": "Przedszkole Miejskie Nr 2", "old_address": "ul. Starościńska 4b", "plastic": "5", "metal": "3", "paper": "", "cups": "", "chargers": "1", "prg_address": "none", "lng": " 0", "lat": " 0" }, "geometry": { "type": "Point", "coordinates": [ 23.48476, 51.135872 ] } },
{ "type": "Feature", "properties": { "id": "2", "name": "Przedszkole Miejskie Nr 5", "old_address": "ul. Kwiatowa 1", "plastic": "8", "metal": "20", "paper": "", "cups": "", "chargers": "3", "prg_address": "Kwiatowa 1", "lng": " 51.134102", "lat": " 23.461534" }, "geometry": { "type": "Point", "coordinates": [ 23.461534, 51.134102 ] } },
{ "type": "Feature", "properties": { "id": "3", "name": "Przedszkole Miejskie Nr 6", "old_address": "ul. Pocztowa 18", "plastic": "8", "metal": "", "paper": "", "cups": "2", "chargers": "2", "prg_address": "none", "lng": " 0", "lat": " 0" }, "geometry": { "type": "Point", "coordinates": [ 23.47414232, 51.131219 ] } },
{ "type": "Feature", "properties": { "id": "4", "name": "Przedszkole Miejskie Nr 8", "old_address": "ul. Reja 54", "plastic": "9", "metal": "", "paper": "45", "cups": "4", "chargers": "1", "prg_address": "Reja M. 54", "lng": " 51.133662", "lat": " 23.510894" }, "geometry": { "type": "Point", "coordinates": [ 23.510894, 51.133662 ] } },
{ "type": "Feature", "properties": { "id": "5", "name": "Przedszkole Miejskie Nr 10", "old_address": "ul. Zachodnia 49", "plastic": "5", "metal": "", "paper": "32", "cups": "2", "chargers": "3", "prg_address": "Zachodnia 49", "lng": " 51.141721", "lat": " 23.432193" }, "geometry": { "type": "Point", "coordinates": [ 23.432193, 51.141721 ] } },
{ "type": "Feature", "properties": { "id": "6", "name": "Przedszkole Miejskie Nr 11", "old_address": "ul. Piłsudskiego 25 a", "plastic": "7", "metal": "", "paper": "", "cups": "1", "chargers": "4", "prg_address": "al. Marszałka Józefa Piłsudskiego 25A", "lng": " 51.138333", "lat": " 23.493078" }, "geometry": { "type": "Point", "coordinates": [ 23.493078, 51.138333 ] } },
{ "type": "Feature", "properties": { "id": "7", "name": "Przedszkole Miejskie Nr 12", "old_address": "ul. Powstańców Warszawy 6", "plastic": "8", "metal": "6", "paper": "", "cups": "2", "chargers": "", "prg_address": "Powstańców Warszawy 6", "lng": " 51.126508", "lat": " 23.475893" }, "geometry": { "type": "Point", "coordinates": [ 23.475893, 51.126508 ] } },
{ "type": "Feature", "properties": { "id": "8", "name": "Przedszkole Miejskie Nr 13 z Oddziałami Integracyjnymi", "old_address": "ul. Połaniecka 5", "plastic": "9", "metal": "18", "paper": "", "cups": "", "chargers": "", "prg_address": "Połaniecka 5", "lng": " 51.122313", "lat": " 23.476512" }, "geometry": { "type": "Point", "coordinates": [ 23.476512, 51.122313 ] } },
{ "type": "Feature", "properties": { "id": "9", "name": "Przedszkole Miejskie Nr 14", "old_address": "ul. G. Roweckiego 4a", "plastic": "5", "metal": "4", "paper": "", "cups": "1", "chargers": "", "prg_address": "none", "lng": " 0", "lat": " 0" }, "geometry": { "type": "Point", "coordinates": [ 23.4716844, 51.1252049 ] } },
{ "type": "Feature", "properties": { "id": "10", "name": "Przedszkole Miejskie Nr 15", "old_address": "ul. Wieniawskiego 3", "plastic": "5", "metal": "4", "paper": "", "cups": "3", "chargers": "1", "prg_address": "Wieniawskiego H. 3", "lng": " 51.124974", "lat": " 23.46576" }, "geometry": { "type": "Point", "coordinates": [ 23.46576, 51.124974 ] } },
{ "type": "Feature", "properties": { "id": "11", "name": "Szkoła Podstawowa Nr 1", "old_address": "ul. Wołyńska 1", "plastic": "6", "metal": "", "paper": "5", "cups": "2", "chargers": "4", "prg_address": "Wołyńska 1", "lng": " 51.136012", "lat": " 23.49132" }, "geometry": { "type": "Point", "coordinates": [ 23.49132, 51.136012 ] } },
{ "type": "Feature", "properties": { "id": "12", "name": "Szkoła Podstawowa Nr 2", "old_address": "ul. Obłońska 51", "plastic": "8", "metal": "5", "paper": "", "cups": "4", "chargers": "5", "prg_address": "Obłońska 51", "lng": " 51.137887", "lat": " 23.475607" }, "geometry": { "type": "Point", "coordinates": [ 23.475607, 51.137887 ] } },
{ "type": "Feature", "properties": { "id": "13", "name": "Szkoła Podstawowa Nr 4 z Oddziałami Integracyjnymi", "old_address": "ul. Wyszyńskiego 15", "plastic": "9", "metal": "32", "paper": "7", "cups": "", "chargers": "6", "prg_address": "Wyszyńskiego St. Prymasa 15", "lng": " 51.128507", "lat": " 23.497057" }, "geometry": { "type": "Point", "coordinates": [ 23.497057, 51.128507 ] } },
{ "type": "Feature", "properties": { "id": "14", "name": "Szkoła Podstawowa Nr 5", "old_address": "ul. I Pułku Szwoleżerów 1", "plastic": "5", "metal": "15", "paper": "", "cups": "", "chargers": "2", "prg_address": "1 Pułku Szwoleżerów 1", "lng": " 51.13472", "lat": " 23.481044" }, "geometry": { "type": "Point", "coordinates": [ 23.481044, 51.13472 ] } },
{ "type": "Feature", "properties": { "id": "15", "name": "Szkoła Podstawowa Nr 7", "old_address": "ul. Synów Pułku 15", "plastic": "8", "metal": "", "paper": "", "cups": "2", "chargers": "1", "prg_address": "Synów Pułku 15", "lng": " 51.142", "lat": " 23.439806" }, "geometry": { "type": "Point", "coordinates": [ 23.439806, 51.142 ] } },
{ "type": "Feature", "properties": { "id": "16", "name": "Szkoła Podstawowa Nr 8", "old_address": "ul. Połaniecka 10", "plastic": "8", "metal": "34", "paper": "", "cups": "4", "chargers": "3", "prg_address": "Połaniecka 10", "lng": " 51.122953", "lat": " 23.477076" }, "geometry": { "type": "Point", "coordinates": [ 23.477076, 51.122953 ] } },
{ "type": "Feature", "properties": { "id": "17", "name": "Szkoła Podstawowa Nr 11", "old_address": "ul. Powstańców Warszawy 10", "plastic": "9", "metal": "", "paper": "", "cups": "", "chargers": "", "prg_address": "Powstańców Warszawy 10", "lng": " 51.126145", "lat": " 23.479226" }, "geometry": { "type": "Point", "coordinates": [ 23.479226, 51.126145 ] } },
{ "type": "Feature", "properties": { "id": "18", "name": "Zespół Szkolno Przedszkolny Nr 3 z Oddziałami Integracyjnymi", "old_address": "ul. Rejowiecka 76", "plastic": "5", "metal": "", "paper": "", "cups": "3", "chargers": "", "prg_address": "none", "lng": " 0", "lat": " 0" }, "geometry": { "type": "Point", "coordinates": [ 23.4501248, 51.144630 ] } },
{ "type": "Feature", "properties": { "id": "19", "name": "I Liceum Ogólnokształcące", "old_address": "ul. Czarnieckiego 8", "plastic": "7", "metal": "24", "paper": "18", "cups": "2", "chargers": "1", "prg_address": "Czarnieckiego S. 8", "lng": " 51.134714", "lat": " 23.477715" }, "geometry": { "type": "Point", "coordinates": [ 23.477715, 51.134714 ] } },
{ "type": "Feature", "properties": { "id": "20", "name": "II Liceum Ogólnokształcące", "old_address": "ul. Szpitalna 14", "plastic": "8", "metal": "8", "paper": "16", "cups": "4", "chargers": "2", "prg_address": "Szpitalna 14", "lng": " 51.142553", "lat": " 23.455891" }, "geometry": { "type": "Point", "coordinates": [ 23.455891, 51.142553 ] } },
{ "type": "Feature", "properties": { "id": "21", "name": "Zespół Szkół Ekonomicznych i  Mundurowych", "old_address": "ul. Sienkiewicza 22", "plastic": "9", "metal": "20", "paper": "", "cups": "2", "chargers": "", "prg_address": "Sienkiewicza H. 22", "lng": " 51.136701", "lat": " 23.477664" }, "geometry": { "type": "Point", "coordinates": [ 23.477664, 51.136701 ] } },
{ "type": "Feature", "properties": { "id": "22", "name": "IV Liceum Ogólnokształcące z Oddziałami Integracyjnymi", "old_address": "ul. Św. Mikołaja 4", "plastic": "5", "metal": "", "paper": "", "cups": "1", "chargers": "2", "prg_address": "none", "lng": " 0", "lat": " 0" }, "geometry": { "type": "Point", "coordinates": [ 23.47712813, 51.133319 ] } },
{ "type": "Feature", "properties": { "id": "23", "name": "Zespół Szkół Budowlanych i Geodezyjnych", "old_address": "ul. Batorego 1", "plastic": "4", "metal": "16", "paper": "", "cups": "2", "chargers": "3", "prg_address": "Stefana Batorego 1", "lng": " 51.131747", "lat": " 23.497412" }, "geometry": { "type": "Point", "coordinates": [ 23.497412, 51.131747 ] } },
{ "type": "Feature", "properties": { "id": "24", "name": "Zespół Szkół Technicznych", "old_address": "ul. Graniczna 2", "plastic": "6", "metal": "13", "paper": "5", "cups": "", "chargers": "", "prg_address": "Graniczna 2", "lng": " 51.127999", "lat": " 23.491891" }, "geometry": { "type": "Point", "coordinates": [ 23.491891, 51.127999 ] } },
{ "type": "Feature", "properties": { "id": "25", "name": "Zespół Szkół Gastronomicznych i Hotelarskich", "old_address": "ul. Reformacka 13", "plastic": "8", "metal": "6", "paper": "", "cups": "1", "chargers": "1", "prg_address": "Reformacka 13", "lng": " 51.132452", "lat": " 23.470397" }, "geometry": { "type": "Point", "coordinates": [ 23.470397, 51.132452 ] } },
{ "type": "Feature", "properties": { "id": "26", "name": "Zespół Szkół Energetycznych i Transportowych", "old_address": "ul. Jagiellońska 29", "plastic": "9", "metal": "", "paper": "", "cups": "3", "chargers": "3", "prg_address": "Jagiellońska 29", "lng": " 51.131466", "lat": " 23.508026" }, "geometry": { "type": "Point", "coordinates": [ 23.508026, 51.131466 ] } },
{ "type": "Feature", "properties": { "id": "27", "name": "Centrum Kształcenia Praktycznego", "old_address": "ul. Jagiellońska 29", "plastic": "5", "metal": "63", "paper": "", "cups": "2", "chargers": "3", "prg_address": "Jagiellońska 29", "lng": " 51.131466", "lat": " 23.508026" }, "geometry": { "type": "Point", "coordinates": [ 23.508026, 51.131466 ] } },
{ "type": "Feature", "properties": { "id": "28", "name": "Centrum Kształcenia Ustawicznego", "old_address": "ul. Batorego 1", "plastic": "8", "metal": "", "paper": "7", "cups": "4", "chargers": "2", "prg_address": "Stefana Batorego 1", "lng": " 51.131747", "lat": " 23.497412" }, "geometry": { "type": "Point", "coordinates": [ 23.497412, 51.131747 ] } },
{ "type": "Feature", "properties": { "id": "29", "name": "Zespół Wychowania i  Pomocy Psychologiczno – Pedagogicznej Nr 1", "old_address": "ul. Trubakowska 59", "plastic": "8", "metal": "22", "paper": "", "cups": "2", "chargers": "1", "prg_address": "Trubakowska 59", "lng": " 51.135349", "lat": " 23.445659" }, "geometry": { "type": "Point", "coordinates": [ 23.445659, 51.135349 ] } },
{ "type": "Feature", "properties": { "id": "30", "name": "Zespół Wychowania i  Pomocy Psychologiczno – Pedagogicznej Nr 2", "old_address": "ul. Powstańców Warszawy 8", "plastic": "9", "metal": "10", "paper": "", "cups": "", "chargers": "", "prg_address": "Powstańców Warszawy 8", "lng": " 51.126299", "lat": " 23.477453" }, "geometry": { "type": "Point", "coordinates": [ 23.477453, 51.126299 ] } },
{ "type": "Feature", "properties": { "id": "31", "name": "Młodzieżowy Dom Kultury", "old_address": "ul. Pocztowa 41", "plastic": "5", "metal": "", "paper": "", "cups": "2", "chargers": "2", "prg_address": "Pocztowa 41", "lng": " 51.131138", "lat": " 23.478098" }, "geometry": { "type": "Point", "coordinates": [ 23.478098, 51.131138 ] } },
{ "type": "Feature", "properties": { "id": "32", "name": "Niepubliczna Szkoła Podstawowa Razem", "old_address": "ul. Reja 54", "plastic": "7", "metal": "4", "paper": "", "cups": "", "chargers": "1", "prg_address": "Reja M. 54", "lng": " 51.133662", "lat": " 23.510894" }, "geometry": { "type": "Point", "coordinates": [ 23.510894, 51.133662 ] } },
{ "type": "Feature", "properties": { "id": "33", "name": "MOPR", "old_address": "ul. Kolejowa 7", "plastic": "8", "metal": "7", "paper": "", "cups": "1", "chargers": "3", "prg_address": "none", "lng": " 0", "lat": " 0" }, "geometry": { "type": "Point", "coordinates": [ 23.478462, 51.1382859 ] } },
{ "type": "Feature", "properties": { "id": "34", "name": "Polski Czerwony Krzyż. Zarząd Rejonowy", "old_address": "ul. Rejowiecka 132", "plastic": "9", "metal": "", "paper": "", "cups": "3", "chargers": "4", "prg_address": "Rejowiecka 132", "lng": " 51.144051", "lat": " 23.459089" }, "geometry": { "type": "Point", "coordinates": [ 23.459089, 51.144051 ] } },
{ "type": "Feature", "properties": { "id": "35", "name": "Chełmski Ośrodek Wsparcia Bliźniego Caritas Ordynariatu Polowego Wojska Polskiego", "old_address": "ul. Lubelska 137", "plastic": "5", "metal": "5", "paper": "10", "cups": "2", "chargers": "5", "prg_address": "Lubelska 137", "lng": " 51.140879", "lat": " 23.451709" }, "geometry": { "type": "Point", "coordinates": [ 23.451709, 51.140879 ] } },
{ "type": "Feature", "properties": { "id": "36", "name": "Związek Harcerstwa Polskiego", "old_address": "ul. 1 Pułku Szwoleżerów 15A", "plastic": "5", "metal": "7", "paper": "", "cups": "", "chargers": "3", "prg_address": "none", "lng": " 0", "lat": " 0" }, "geometry": { "type": "Point", "coordinates": [ 23.487944, 51.134373 ] } },
{ "type": "Feature", "properties": { "id": "37", "name": "Kościół Rzymskokatolicki p.w. Narodzenia Najświętszej Marii Panny", "old_address": "ul. Lubelska 2", "plastic": "6", "metal": "", "paper": "15", "cups": "2", "chargers": "2", "prg_address": "Lubelska 2", "lng": " 51.131678", "lat": " 23.478278" }, "geometry": { "type": "Point", "coordinates": [ 23.478278, 51.131678 ] } },
{ "type": "Feature", "properties": { "id": "38", "name": "Kościół Rzymskokatolicki p.w. Rozesłania Świętych Apostołów", "old_address": "ul. Lubelska 55", "plastic": "8", "metal": "22", "paper": "", "cups": "", "chargers": "1", "prg_address": "Lubelska 55", "lng": " 51.132889", "lat": " 23.471649" }, "geometry": { "type": "Point", "coordinates": [ 23.471649, 51.132889 ] } },
{ "type": "Feature", "properties": { "id": "39", "name": "Kościół Rzymskokatolicki - Klasztor Franciszkanów", "old_address": "ul. Reformacka 13a", "plastic": "9", "metal": "10", "paper": "17", "cups": "2", "chargers": "4", "prg_address": "Reformacka 13A", "lng": " 51.132206", "lat": " 23.470346" }, "geometry": { "type": "Point", "coordinates": [ 23.470346, 51.132206 ] } },
{ "type": "Feature", "properties": { "id": "40", "name": "Kościół Rzymskokatolicki p.w. Św. Kazimierza", "old_address": "ul. Koszarowa 16", "plastic": "5", "metal": "", "paper": "150", "cups": "4", "chargers": "5", "prg_address": "Koszarowa 16", "lng": " 51.142537", "lat": " 23.444987" }, "geometry": { "type": "Point", "coordinates": [ 23.444987, 51.142537 ] } },
{ "type": "Feature", "properties": { "id": "41", "name": "Kościół Rzymskokatolicki p.w. Miłosierdzia Bożego", "old_address": "ul. Artura Grottgera 1a", "plastic": "8", "metal": "4", "paper": "3763", "cups": "1", "chargers": "", "prg_address": "none", "lng": " 0", "lat": " 0" }, "geometry": { "type": "Point", "coordinates": [ 23.4931586, 51.121542 ] } },
{ "type": "Feature", "properties": { "id": "42", "name": "Kościół Rzymskokatolicki p.w. Chrystusa Odkupiciela", "old_address": "ul. Księdza Marcelego Mrozka 2", "plastic": "8", "metal": "7", "paper": "", "cups": "3", "chargers": "2", "prg_address": "none", "lng": " 0", "lat": " 0" }, "geometry": { "type": "Point", "coordinates": [ 23.4744604, 51.1242399 ] } },
{ "type": "Feature", "properties": { "id": "43", "name": "Kościół Rzymskokatolicki p.w. Świętego Ducha", "old_address": "ul. Grunwaldzka 32", "plastic": "9", "metal": "", "paper": "", "cups": "", "chargers": "1", "prg_address": "Grunwaldzka 32", "lng": " 51.12919", "lat": " 23.505507" }, "geometry": { "type": "Point", "coordinates": [ 23.505507, 51.12919 ] } },
{ "type": "Feature", "properties": { "id": "44", "name": "Kościół Rzymskokatolicki p.w. Przenajświętszej Trójcy", "old_address": "Plac Jana Pawła II 2", "plastic": "5", "metal": "", "paper": "130", "cups": "4", "chargers": "3", "prg_address": "im. Jana Pawła II 2", "lng": " 51.143734", "lat": " 23.42981" }, "geometry": { "type": "Point", "coordinates": [ 23.42981, 51.143734 ] } },
{ "type": "Feature", "properties": { "id": "45", "name": "Kościół Rzymskokatolicki p.w. Świętej Rodziny", "old_address": "ul. Karola Szymanowskiego 19", "plastic": "7", "metal": "", "paper": "", "cups": "2", "chargers": "1", "prg_address": "Szymanowskiego K.", "lng": "51.127561", "lat": "23.46041" }, "geometry": { "type": "Point", "coordinates": [ 23.46041, 51.127561 ] } },
{ "type": "Feature", "properties": { "id": "46", "name": "Kościół Rzymskokatolicki p.w. Matki Teresy z Kalkuty", "old_address": "ul. Jana Kochanowskiego 36", "plastic": "8", "metal": "", "paper": "50", "cups": "1", "chargers": "", "prg_address": "Kochanowskiego J. 36", "lng": "51.150399", "lat": " 23.443604" }, "geometry": { "type": "Point", "coordinates": [ 23.443604, 51.150399 ] } }
]
}
